[
{"prefcode": "01","prefname_jp": "北海道","prefname_sjp": "北海道","prefname_en": "Hokkaido Prefecture","prefname_sen": "Hokkaido","capital_jp": "北海道庁","capital_address": "札幌市中央区北三条西6-1","capital_lat": "43.06431138","capital_lon": "141.3469654"},
{"prefcode": "02","prefname_jp": "青森県","prefname_sjp": "青森","prefname_en": "Aomori Prefecture","prefname_sen": "Aomori","capital_jp": "青森県庁","capital_address": "青森市長島1-1-1","capital_lat": "40.824905217812876","capital_lon": "140.74015335937747"},
{"prefcode": "03","prefname_jp": "岩手県","prefname_sjp": "岩手","prefname_en": "Iwate Prefecture","prefname_sen": "Iwate","capital_jp": "岩手県庁","capital_address": "盛岡市内丸10-1","capital_lat": "39.703519657584884","capital_lon": "141.15268385575382"},
{"prefcode": "04","prefname_jp": "宮城県","prefname_sjp": "宮城","prefname_en": "Miyagi Prefecture","prefname_sen": "Miyagi","capital_jp": "宮城県庁","capital_address": "仙台市青葉区本町3-8-1","capital_lat": "38.26874808025974","capital_lon": "140.87222456250996"},
{"prefcode": "05","prefname_jp": "秋田県","prefname_sjp": "秋田","prefname_en": "Akita Prefecture","prefname_sen": "Akita","capital_jp": "秋田県庁","capital_address": "秋田市山王4-1-1","capital_lat": "39.71816848138052","capital_lon": "140.1033675013058"},
{"prefcode": "06","prefname_jp": "山形県","prefname_sjp": "山形","prefname_en": "Yamagata Prefecture","prefname_sen": "Yamagata","capital_jp": "山形県庁","capital_address": "山形市松波2-8-1","capital_lat": "38.24012445753301","capital_lon": "140.36257980135863"},
{"prefcode": "07","prefname_jp": "福島県","prefname_sjp": "福島","prefname_en": "Fukushima Prefecture","prefname_sen": "Fukushima","capital_jp": "福島県庁","capital_address": "福島市杉妻町2-16","capital_lat": "37.75014789256234","capital_lon": "140.46672541127523"},
{"prefcode": "08","prefname_jp": "茨城県","prefname_sjp": "茨城","prefname_en": "Ibaraki Prefecture","prefname_sen": "Ibaraki","capital_jp": "茨城県庁","capital_address": "水戸市笠原町978-6","capital_lat": "36.3417947282926","capital_lon": "140.44681042781278"},
{"prefcode": "09","prefname_jp": "栃木県","prefname_sjp": "栃木","prefname_en": "Tochigi Prefecture","prefname_sen": "Tochigi","capital_jp": "栃木県庁","capital_address": "宇都宮市塙田1-1-20","capital_lat": "36.56574897577977","capital_lon": "139.88353452259804"},
{"prefcode": "10","prefname_jp": "群馬県","prefname_sjp": "群馬","prefname_en": "Gunma Prefecture","prefname_sen": "Gunma","capital_jp": "群馬県庁","capital_address": "前橋市大手町1-1-1","capital_lat": "36.3912497805372","capital_lon": "139.06085253952276"},
{"prefcode": "11","prefname_jp": "埼玉県","prefname_sjp": "埼玉","prefname_en": "Saitama Prefecture","prefname_sen": "Saitama","capital_jp": "埼玉県庁","capital_address": "さいたま市浦和区高砂3-15-1","capital_lat": "35.85777043883106","capital_lon": "139.64780839662282"},
{"prefcode": "12","prefname_jp": "千葉県","prefname_sjp": "千葉","prefname_en": "Chiba Prefecture","prefname_sen": "Chiba","capital_jp": "千葉県庁","capital_address": "千葉市中央区市場町1-1","capital_lat": "35.60456228747247","capital_lon": "140.1231823749217"},
{"prefcode": "13","prefname_jp": "東京都","prefname_sjp": "東京","prefname_en": "Tokyo Metropolis","prefname_sen": "Tokyo","capital_jp": "東京都庁","capital_address": "新宿区西新宿2-8-1","capital_lat": "35.689184655365835","capital_lon": "139.69165094672076"},
{"prefcode": "14","prefname_jp": "神奈川県","prefname_sjp": "神奈川","prefname_en": "Kanagawa Prefecture","prefname_sen": "Kanagawa","capital_jp": "神奈川県庁","capital_address": "横浜市中区日本大通1","capital_lat": "35.44750456037266","capital_lon": "139.6423490580028"},
{"prefcode": "15","prefname_jp": "新潟県","prefname_sjp": "新潟","prefname_en": "Niigata Prefecture","prefname_sen": "Niigata","capital_jp": "新潟県庁","capital_address": "新潟市中央区新光町4-1","capital_lat": "37.90190960870709","capital_lon": "139.02254786891467"},
{"prefcode": "16","prefname_jp": "富山県","prefname_sjp": "富山","prefname_en": "Toyama Prefecture","prefname_sen": "Toyama","capital_jp": "富山県庁","capital_address": "富山市新総曲輪1-7","capital_lat": "36.69528361266111","capital_lon": "137.2113035958284"},
{"prefcode": "17","prefname_jp": "石川県","prefname_sjp": "石川","prefname_en": "Ishikawa Prefecture","prefname_sen": "Ishikawa","capital_jp": "石川県庁","capital_address": "金沢市鞍月1-1","capital_lat": "36.59458274289672","capital_lon": "136.62567294231127"},
{"prefcode": "18","prefname_jp": "福井県","prefname_sjp": "福井","prefname_en": "Fukui Prefecture","prefname_sen": "Fukui","capital_jp": "福井県庁","capital_address": "福井市大手3-17-1","capital_lat": "36.06521884997711","capital_lon": "136.22164274942804"},
{"prefcode": "19","prefname_jp": "山梨県","prefname_sjp": "山梨","prefname_en": "Yamanashi Prefecture","prefname_sen": "Yamanashi","capital_jp": "山梨県庁","capital_address": "甲府市丸の内1-6-1","capital_lat": "35.66454559460257","capital_lon": "138.56887728273338"},
{"prefcode": "20","prefname_jp": "長野県","prefname_sjp": "長野","prefname_en": "Nagano Prefecture","prefname_sen": "Nagano","capital_jp": "長野県庁","capital_address": "長野市大字南長野字幅下692-2","capital_lat": "36.65124543141521","capital_lon": "138.18099307106732"},
{"prefcode": "21","prefname_jp": "岐阜県","prefname_sjp": "岐阜","prefname_en": "Gifu Prefecture","prefname_sen": "Gifu","capital_jp": "岐阜県庁","capital_address": "岐阜市薮田南2-1-1","capital_lat": "35.39201239141771","capital_lon": "136.72293473218917"},
{"prefcode": "22","prefname_jp": "静岡県","prefname_sjp": "静岡","prefname_en": "Shizuoka Prefecture","prefname_sen": "Shizuoka","capital_jp": "静岡県庁","capital_address": "静岡市葵区追手町9-6","capital_lat": "34.97696176","capital_lon": "138.3830426"},
{"prefcode": "23","prefname_jp": "愛知県","prefname_sjp": "愛知","prefname_en": "Aichi Prefecture","prefname_sen": "Aichi","capital_jp": "愛知県庁","capital_address": "名古屋市中区三の丸3-1-2","capital_lat": "35.18024567","capital_lon": "136.9066976"},
{"prefcode": "24","prefname_jp": "三重県","prefname_sjp": "三重","prefname_en": "Mie Prefecture","prefname_sen": "Mie","capital_jp": "三重県庁","capital_address": "津市広明町13","capital_lat": "34.73054593","capital_lon": "136.5086102"},
{"prefcode": "25","prefname_jp": "滋賀県","prefname_sjp": "滋賀","prefname_en": "Shiga Prefecture","prefname_sen": "Shiga","capital_jp": "滋賀県庁","capital_address": "大津市京町4-1-1","capital_lat": "35.00438586","capital_lon": "135.8694448"},
{"prefcode": "26","prefname_jp": "京都府","prefname_sjp": "京都","prefname_en": "Kyoto Prefecture","prefname_sen": "Kyoto","capital_jp": "京都府庁","capital_address": "京都市上京区下立売通新町西入藪之内町","capital_lat": "35.02265441","capital_lon": "135.75595478"},
{"prefcode": "27","prefname_jp": "大阪府","prefname_sjp": "大阪","prefname_en": "Osaka Prefecture","prefname_sen": "Osaka","capital_jp": "大阪府庁","capital_address": "大阪市中央区大手前2-1-22","capital_lat": "34.68598859","capital_lon": "135.5198557"},
{"prefcode": "28","prefname_jp": "兵庫県","prefname_sjp": "兵庫","prefname_en": "Hyogo Prefecture","prefname_sen": "Hyogo","capital_jp": "兵庫県庁","capital_address": "神戸市中央区下山手通5-10-1","capital_lat": "34.69128226","capital_lon": "135.183098"},
{"prefcode": "29","prefname_jp": "奈良県","prefname_sjp": "奈良","prefname_en": "Nara Prefecture","prefname_sen": "Nara","capital_jp": "奈良県庁","capital_address": "奈良市登大路町30","capital_lat": "34.68530095","capital_lon": "135.8327808"},
{"prefcode": "30","prefname_jp": "和歌山県","prefname_sjp": "和歌山","prefname_en": "Wakayama Prefecture","prefname_sen": "Wakayama","capital_jp": "和歌山県庁","capital_address": "和歌山市小松原通1-1","capital_lat": "34.22480569","capital_lon": "135.1679496"},
{"prefcode": "31","prefname_jp": "鳥取県","prefname_sjp": "鳥取","prefname_en": "Tottori Prefecture","prefname_sen": "Tottori","capital_jp": "鳥取県庁","capital_address": "鳥取市東町1-220","capital_lat": "35.50346217","capital_lon": "134.2382578"},
{"prefcode": "32","prefname_jp": "島根県","prefname_sjp": "島根","prefname_en": "Shimane Prefecture","prefname_sen": "Shimane","capital_jp": "島根県庁","capital_address": "松江市殿町1","capital_lat": "35.47224772","capital_lon": "133.0508296"},
{"prefcode": "33","prefname_jp": "岡山県","prefname_sjp": "岡山","prefname_en": "Okayama Prefecture","prefname_sen": "Okayama","capital_jp": "岡山県庁","capital_address": "岡山市北区内山下2-4-6","capital_lat": "34.66132576","capital_lon": "133.9343695"},
{"prefcode": "34","prefname_jp": "広島県","prefname_sjp": "広島","prefname_en": "Hiroshima Prefecture","prefname_sen": "Hiroshima","capital_jp": "広島県庁","capital_address": "広島市中区基町10-52","capital_lat": "34.39655415","capital_lon": "132.4595553"},
{"prefcode": "35","prefname_jp": "山口県","prefname_sjp": "山口","prefname_en": "Yamaguchi Prefecture","prefname_sen": "Yamaguchi","capital_jp": "山口県庁","capital_address": "山口市滝町1-1","capital_lat": "34.18564754","capital_lon": "131.4707543"},
{"prefcode": "36","prefname_jp": "徳島県","prefname_sjp": "徳島","prefname_en": "Tokushima Prefecture","prefname_sen": "Tokushima","capital_jp": "徳島県庁","capital_address": "徳島市万代町1-1","capital_lat": "34.06573667","capital_lon": "134.559304"},
{"prefcode": "37","prefname_jp": "香川県","prefname_sjp": "香川","prefname_en": "Kagawa Prefecture","prefname_sen": "Kagawa","capital_jp": "香川県庁","capital_address": "高松市番町4-1-10","capital_lat": "34.34014595","capital_lon": "134.0433599"},
{"prefcode": "38","prefname_jp": "愛媛県","prefname_sjp": "愛媛","prefname_en": "Ehime Prefecture","prefname_sen": "Ehime","capital_jp": "愛媛県庁","capital_address": "松山市一番町4-4-2","capital_lat": "33.84164279","capital_lon": "132.7656359"},
{"prefcode": "39","prefname_jp": "高知県","prefname_sjp": "高知","prefname_en": "Kochi Prefecture","prefname_sen": "Kochi","capital_jp": "高知県庁","capital_address": "高知市丸ノ内1-2-20","capital_lat": "33.55968931","capital_lon": "133.5308872"},
{"prefcode": "40","prefname_jp": "福岡県","prefname_sjp": "福岡","prefname_en": "Fukuoka Prefecture","prefname_sen": "Fukuoka","capital_jp": "福岡県庁","capital_address": "福岡市博多区東公園7-7","capital_lat": "33.60676407","capital_lon": "130.4182166"},
{"prefcode": "41","prefname_jp": "佐賀県","prefname_sjp": "佐賀","prefname_en": "Saga Prefecture","prefname_sen": "Saga","capital_jp": "佐賀県庁","capital_address": "佐賀市城内1-1-59","capital_lat": "33.24957161","capital_lon": "130.299816"},
{"prefcode": "42","prefname_jp": "長崎県","prefname_sjp": "長崎","prefname_en": "Nagasaki Prefecture","prefname_sen": "Nagasaki","capital_jp": "長崎県庁","capital_address": "長崎市尾上町3-1","capital_lat": "32.75039611","capital_lon": "129.8677952"},
{"prefcode": "43","prefname_jp": "熊本県","prefname_sjp": "熊本","prefname_en": "Kumamoto Prefecture","prefname_sen": "Kumamoto","capital_jp": "熊本県庁","capital_address": "熊本市中央区水前寺6-18-1","capital_lat": "32.78977926","capital_lon": "130.7415531"},
{"prefcode": "44","prefname_jp": "大分県","prefname_sjp": "大分","prefname_en": "Oita Prefecture","prefname_sen": "Oita","capital_jp": "大分県庁","capital_address": "大分市大手町3-1-1","capital_lat": "33.23822757","capital_lon": "131.6125855"},
{"prefcode": "45","prefname_jp": "宮崎県","prefname_sjp": "宮崎","prefname_en": "Miyazaki Prefecture","prefname_sen": "Miyazaki","capital_jp": "宮崎県庁","capital_address": "宮崎市橘通東2-10-1","capital_lat": "31.91108896","capital_lon": "131.4238548"},
{"prefcode": "46","prefname_jp": "鹿児島県","prefname_sjp": "鹿児島","prefname_en": "Kagoshima Prefecture","prefname_sen": "Kagoshima","capital_jp": "鹿児島県庁","capital_address": "鹿児島市鴨池新町10-1","capital_lat": "31.560218270000004","capital_lon": "130.5579051"},
{"prefcode": "47","prefname_jp": "沖縄県","prefname_sjp": "沖縄","prefname_en": "Okinawa Prefecture","prefname_sen": "Okinawa","capital_jp": "沖縄県庁","capital_address": "那覇市泉崎1-2-2","capital_lat": "26.21152075","capital_lon": "127.68114489999999"}
]
